{
  "type": "FeatureCollection",
  "features": [
    {
      "type": "Feature",
      "properties": {
        "label": "François-Xavier de FELLER (1768)",
        "name": "KASSA",
        "person": "François-Xavier de FELLER",
        "year": "1768",
        "road": 1
      },
      "geometry": {
        "coordinates": [
          21.2496774,
          48.7172272
        ],
        "type": "Point"
      }
    },
    {
      "type": "Feature",
      "properties": {
        "label": "François-Xavier de FELLER (1768)",
        "name": "TOKAJ",
        "person": "François-Xavier de FELLER",
        "year": "1768",
        "road": 1
      },
      "geometry": {
        "coordinates": [
          21.4113895,
          48.1235534
        ],
        "type": "Point"
      }
    },
    {
      "type": "Feature",
      "properties": {
        "label": "François-Xavier de FELLER (1768)",
        "name": "DEBRECEN",
        "person": "François-Xavier de FELLER",
        "year": "1768",
        "road": 1
      },
      "geometry": {
        "coordinates": [
          21.6259782,
          47.531399
        ],
        "type": "Point"
      }
    },
    {
      "type": "Feature",
      "properties": {
        "label": "François-Xavier de FELLER (1768)",
        "name": "NAGYVÁRAD",
        "person": "François-Xavier de FELLER",
        "year": "1768",
        "road": 1
      },
      "geometry": {
        "coordinates": [
          21.927919041661156,
          47.058715
        ],
        "type": "Point"
      }
    },
    {
      "type": "Feature",
      "properties": {
        "label": "François-Xavier de FELLER (1768)",
        "name": "ÉLESD",
        "person": "François-Xavier de FELLER",
        "year": "1768",
        "road": 1
      },
      "geometry": {
        "coordinates": [
          22.40702425764579,
          47.0661535
        ],
        "type": "Point"
      }
    },
    {
      "type": "Feature",
      "properties": {
        "label": "François-Xavier de FELLER (1768)",
        "name": "NAGYBÁRÓD",
        "person": "François-Xavier de FELLER",
        "year": "1768",
        "road": 1
      },
      "geometry": {
        "coordinates": [
          22.598176523242653,
          47.005273
        ],
        "type": "Point"
      }
    },
    {
      "type": "Feature",
      "properties": {
        "label": "François-Xavier de FELLER (1768)",
        "name": "BÁNFFYHUNYAD",
        "person": "François-Xavier de FELLER",
        "year": "1768",
        "road": 1
      },
      "geometry": {
        "coordinates": [
          23.02042744820303,
          46.8629674
        ],
        "type": "Point"
      }
    },
    {
      "type": "Feature",
      "properties": {
        "label": "François-Xavier de FELLER (1768)",
        "name": "KOLOZSVÁR",
        "person": "François-Xavier de FELLER",
        "year": "1768",
        "road": 1
      },
      "geometry": {
        "coordinates": [
          23.5899542,
          46.769379
        ],
        "type": "Point"
      }
    },
    {
      "type": "Feature",
      "properties": {
        "label": "François-Xavier de FELLER (1768)",
        "name": "SZAMOSÚJVÁR",
        "person": "François-Xavier de FELLER",
        "year": "1768",
        "road": 1
      },
      "geometry": {
        "coordinates": [
          23.9077402,
          47.0287702
        ],
        "type": "Point"
      }
    },
    {
      "type": "Feature",
      "properties": {
        "label": "François-Xavier de FELLER (1768)",
        "name": "DÉS",
        "person": "François-Xavier de FELLER",
        "year": "1768",
        "road": 1
      },
      "geometry": {
        "coordinates": [
          23.8759884,
          47.1426672
        ],
        "type": "Point"
      }
    },
    {
      "type": "Feature",
      "properties": {
        "label": "François-Xavier de FELLER (1768)",
        "name": "DÉSAKNA",
        "person": "François-Xavier de FELLER",
        "year": "1768",
        "road": 1
      },
      "geometry": {
        "coordinates": [
          23.8596764,
          47.1154652
        ],
        "type": "Point"
      }
    },
    {
      "type": "Feature",
      "properties": {
        "label": "François-Xavier de FELLER (1768)",
        "name": "BETHLEN",
        "person": "François-Xavier de FELLER",
        "year": "1768",
        "road": 1
      },
      "geometry": {
        "coordinates": [
          24.1791099,
          47.1799314
        ],
        "type": "Point"
      }
    },
    {
      "type": "Feature",
      "properties": {
        "label": "François-Xavier de FELLER (1768)",
        "name": "BESZTERCE",
        "person": "François-Xavier de FELLER",
        "year": "1768",
        "road": 1
      },
      "geometry": {
        "coordinates": [
          24.49755169876672,
          47.13897525
        ],
        "type": "Point"
      }
    },
    {
      "type": "Feature",
      "properties": {
        "label": "François-Xavier de FELLER (1768)",
        "name": "JÁD",
        "person": "François-Xavier de FELLER",
        "year": "1768",
        "road": 1
      },
      "geometry": {
        "coordinates": [
          24.5730451,
          47.1810349
        ],
        "type": "Point"
      }
    },
    {
      "type": "Feature",
      "properties": {
        "label": "François-Xavier de FELLER (1768)",
        "name": "BORGÓPRUND",
        "person": "François-Xavier de FELLER",
        "year": "1768",
        "road": 1
      },
      "geometry": {
        "coordinates": [
          24.7406598,
          47.2201539
        ],
        "type": "Point"
      }
    },
    {
      "type": "Feature",
      "properties": {
        "label": "François-Xavier de FELLER (1768)",
        "name": "KISILVA",
        "person": "François-Xavier de FELLER",
        "year": "1768",
        "road": 1
      },
      "geometry": {
        "coordinates": [
          24.6504841,
          47.3128311
        ],
        "type": "Point"
      }
    },
    {
      "type": "Feature",
      "properties": {
        "label": "François-Xavier de FELLER (1768)",
        "name": "ÓRADNA",
        "person": "François-Xavier de FELLER",
        "year": "1768",
        "road": 1
      },
      "geometry": {
        "coordinates": [
          24.8162961,
          47.4230338
        ],
        "type": "Point"
      }
    },
    {
      "type": "Feature",
      "properties": {
        "label": "François-Xavier de FELLER (1768)",
        "name": "ÓRADNA",
        "person": "François-Xavier de FELLER",
        "year": "1768",
        "road": 1
      },
      "geometry": {
        "coordinates": [
          24.8162961,
          47.4230338
        ],
        "type": "Point"
      }
    },
    {
      "type": "Feature",
      "properties": {
        "label": "François-Xavier de FELLER (1768)",
        "name": "JÁD",
        "person": "François-Xavier de FELLER",
        "year": "1768",
        "road": 1
      },
      "geometry": {
        "coordinates": [
          24.5730451,
          47.1810349
        ],
        "type": "Point"
      }
    },
    {
      "type": "Feature",
      "properties": {
        "label": "François-Xavier de FELLER (1768)",
        "name": "BESZTERCE",
        "person": "François-Xavier de FELLER",
        "year": "1768",
        "road": 1
      },
      "geometry": {
        "coordinates": [
          24.49755169876672,
          47.13897525
        ],
        "type": "Point"
      }
    },
    {
      "type": "Feature",
      "properties": {
        "label": "Ignaz von BORN (1770)",
        "name": "SZEGED",
        "person": "Ignaz von BORN",
        "year": "1770",
        "road": 2
      },
      "geometry": {
        "coordinates": [
          20.1486016,
          46.2546312
        ],
        "type": "Point"
      }
    },
    {
      "type": "Feature",
      "properties": {
        "label": "Ignaz von BORN (1770)",
        "name": "TÖRÖKKANIZSA",
        "person": "Ignaz von BORN",
        "year": "1770",
        "road": 2
      },
      "geometry": {
        "coordinates": [
          20.0933532,
          46.0427093
        ],
        "type": "Point"
      }
    },
    {
      "type": "Feature",
      "properties": {
        "label": "Ignaz von BORN (1770)",
        "name": "TEMESVÁR",
        "person": "Ignaz von BORN",
        "year": "1770",
        "road": 2
      },
      "geometry": {
        "coordinates": [
          21.2257474,
          45.75383551
        ],
        "type": "Point"
      }
    },
    {
      "type": "Feature",
      "properties": {
        "label": "Ignaz von BORN (1770)",
        "name": "ORAVICABÁNYA",
        "person": "Ignaz von BORN",
        "year": "1770",
        "road": 2
      },
      "geometry": {
        "coordinates": [
          21.6860595,
          45.0381333
        ],
        "type": "Point"
      }
    },
    {
      "type": "Feature",
      "properties": {
        "label": "Ignaz von BORN (1770)",
        "name": "SZÁSZKABÁNYA",
        "person": "Ignaz von BORN",
        "year": "1770",
        "road": 2
      },
      "geometry": {
        "coordinates": [
          21.7092861,
          44.8870081
        ],
        "type": "Point"
      }
    },
    {
      "type": "Feature",
      "properties": {
        "label": "Ignaz von BORN (1770)",
        "name": "ÚJMOLDOVA",
        "person": "Ignaz von BORN",
        "year": "1770",
        "road": 2
      },
      "geometry": {
        "coordinates": [
          21.6657727,
          44.7351089
        ],
        "type": "Point"
      }
    },
    {
      "type": "Feature",
      "properties": {
        "label": "Ignaz von BORN (1770)",
        "name": "ORAVICABÁNYA",
        "person": "Ignaz von BORN",
        "year": "1770",
        "road": 2
      },
      "geometry": {
        "coordinates": [
          21.6860595,
          45.0381333
        ],
        "type": "Point"
      }
    },
    {
      "type": "Feature",
      "properties": {
        "label": "Ignaz von BORN (1770)",
        "name": "DOGNÁCSKA",
        "person": "Ignaz von BORN",
        "year": "1770",
        "road": 2
      },
      "geometry": {
        "coordinates": [
          21.7513654,
          45.2746952
        ],
        "type": "Point"
      }
    },
    {
      "type": "Feature",
      "properties": {
        "label": "Ignaz von BORN (1770)",
        "name": "BOKSÁNBÁNYA",
        "person": "Ignaz von BORN",
        "year": "1770",
        "road": 2
      },
      "geometry": {
        "coordinates": [
          21.7312589,
          45.3781756
        ],
        "type": "Point"
      }
    },
    {
      "type": "Feature",
      "properties": {
        "label": "Ignaz von BORN (1770)",
        "name": "LUGOS",
        "person": "Ignaz von BORN",
        "year": "1770",
        "road": 2
      },
      "geometry": {
        "coordinates": [
          21.90138082837388,
          45.68675345
        ],
        "type": "Point"
      }
    },
    {
      "type": "Feature",
      "properties": {
        "label": "Ignaz von BORN (1770)",
        "name": "DOBRA",
        "person": "Ignaz von BORN",
        "year": "1770",
        "road": 2
      },
      "geometry": {
        "coordinates": [
          23.6421788,
          45.7691276
        ],
        "type": "Point"
      }
    },
    {
      "type": "Feature",
      "properties": {
        "label": "Ignaz von BORN (1770)",
        "name": "DÉVA",
        "person": "Ignaz von BORN",
        "year": "1770",
        "road": 2
      },
      "geometry": {
        "coordinates": [
          22.9008611,
          45.8817402
        ],
        "type": "Point"
      }
    },
    {
      "type": "Feature",
      "properties": {
        "label": "Ignaz von BORN (1770)",
        "name": "NAGYÁG",
        "person": "Ignaz von BORN",
        "year": "1770",
        "road": 2
      },
      "geometry": {
        "coordinates": [
          23.0389301,
          45.9745243
        ],
        "type": "Point"
      }
    },
    {
      "type": "Feature",
      "properties": {
        "label": "Ignaz von BORN (1770)",
        "name": "ZALATNA",
        "person": "Ignaz von BORN",
        "year": "1770",
        "road": 2
      },
      "geometry": {
        "coordinates": [
          23.2247191,
          46.1113532
        ],
        "type": "Point"
      }
    },
    {
      "type": "Feature",
      "properties": {
        "label": "Ignaz von BORN (1770)",
        "name": "NAGYÁG",
        "person": "Ignaz von BORN",
        "year": "1770",
        "road": 2
      },
      "geometry": {
        "coordinates": [
          23.0389301,
          45.9745243
        ],
        "type": "Point"
      }
    },
    {
      "type": "Feature",
      "properties": {
        "label": "Ignaz von BORN (1770)",
        "name": "FELSŐCSERTÉS",
        "person": "Ignaz von BORN",
        "year": "1770",
        "road": 2
      },
      "geometry": {
        "coordinates": [
          22.9707021,
          45.9742198
        ],
        "type": "Point"
      }
    },
    {
      "type": "Feature",
      "properties": {
        "label": "Ignaz von BORN (1770)",
        "name": "FÜZESD",
        "person": "Ignaz von BORN",
        "year": "1770",
        "road": 2
      },
      "geometry": {
        "coordinates": [
          22.8825952,
          45.9964831
        ],
        "type": "Point"
      }
    },
    {
      "type": "Feature",
      "properties": {
        "label": "Ignaz von BORN (1770)",
        "name": "TRESZTIA",
        "person": "Ignaz von BORN",
        "year": "1770",
        "road": 2
      },
      "geometry": {
        "coordinates": [
          22.9335529,
          46.0238954
        ],
        "type": "Point"
      }
    },
    {
      "type": "Feature",
      "properties": {
        "label": "Ignaz von BORN (1770)",
        "name": "BOICA",
        "person": "Ignaz von BORN",
        "year": "1770",
        "road": 2
      },
      "geometry": {
        "coordinates": [
          22.8928078,
          46.0312338
        ],
        "type": "Point"
      }
    },
    {
      "type": "Feature",
      "properties": {
        "label": "Ignaz von BORN (1770)",
        "name": "NAGYÁG",
        "person": "Ignaz von BORN",
        "year": "1770",
        "road": 2
      },
      "geometry": {
        "coordinates": [
          23.0389301,
          45.9745243
        ],
        "type": "Point"
      }
    },
    {
      "type": "Feature",
      "properties": {
        "label": "Ignaz von BORN (1770)",
        "name": "GYULAFEHÉRVÁR",
        "person": "Ignaz von BORN",
        "year": "1770",
        "road": 2
      },
      "geometry": {
        "coordinates": [
          23.57207875207549,
          46.0713439
        ],
        "type": "Point"
      }
    },
    {
      "type": "Feature",
      "properties": {
        "label": "Ignaz von BORN (1770)",
        "name": "NAGYENYED",
        "person": "Ignaz von BORN",
        "year": "1770",
        "road": 2
      },
      "geometry": {
        "coordinates": [
          23.7188181,
          46.3108893
        ],
        "type": "Point"
      }
    },
    {
      "type": "Feature",
      "properties": {
        "label": "Ignaz von BORN (1770)",
        "name": "FELVINC",
        "person": "Ignaz von BORN",
        "year": "1770",
        "road": 2
      },
      "geometry": {
        "coordinates": [
          23.8114956,
          46.4035376
        ],
        "type": "Point"
      }
    },
    {
      "type": "Feature",
      "properties": {
        "label": "Ignaz von BORN (1770)",
        "name": "TORDA",
        "person": "Ignaz von BORN",
        "year": "1770",
        "road": 2
      },
      "geometry": {
        "coordinates": [
          23.7798424,
          46.5649706
        ],
        "type": "Point"
      }
    },
    {
      "type": "Feature",
      "properties": {
        "label": "Ignaz von BORN (1770)",
        "name": "KOLOZSVÁR",
        "person": "Ignaz von BORN",
        "year": "1770",
        "road": 2
      },
      "geometry": {
        "coordinates": [
          23.5899542,
          46.769379
        ],
        "type": "Point"
      }
    },
    {
      "type": "Feature",
      "properties": {
        "label": "Ignaz von BORN (1770)",
        "name": "DÉS",
        "person": "Ignaz von BORN",
        "year": "1770",
        "road": 2
      },
      "geometry": {
        "coordinates": [
          23.8759884,
          47.1426672
        ],
        "type": "Point"
      }
    },
    {
      "type": "Feature",
      "properties": {
        "label": "Ignaz von BORN (1770)",
        "name": "NAGYBÁNYA",
        "person": "Ignaz von BORN",
        "year": "1770",
        "road": 2
      },
      "geometry": {
        "coordinates": [
          23.5719843,
          47.6565584
        ],
        "type": "Point"
      }
    },
    {
      "type": "Feature",
      "properties": {
        "label": "Ignaz von BORN (1770)",
        "name": "KAPNIKBÁNYA",
        "person": "Ignaz von BORN",
        "year": "1770",
        "road": 2
      },
      "geometry": {
        "coordinates": [
          23.8283247,
          47.6540062
        ],
        "type": "Point"
      }
    },
    {
      "type": "Feature",
      "properties": {
        "label": "Ignaz von BORN (1770)",
        "name": "FELSŐBÁNYA",
        "person": "Ignaz von BORN",
        "year": "1770",
        "road": 2
      },
      "geometry": {
        "coordinates": [
          23.6922094,
          47.6615913
        ],
        "type": "Point"
      }
    },
    {
      "type": "Feature",
      "properties": {
        "label": "Ignaz von BORN (1770)",
        "name": "TOKAJ",
        "person": "Ignaz von BORN",
        "year": "1770",
        "road": 2
      },
      "geometry": {
        "coordinates": [
          21.4113895,
          48.1235534
        ],
        "type": "Point"
      }
    },
    {
      "type": "Feature",
      "properties": {
        "label": "Ignaz von BORN (1770)",
        "name": "SELMECBÁNYA",
        "person": "Ignaz von BORN",
        "year": "1770",
        "road": 2
      },
      "geometry": {
        "coordinates": [
          18.8988414,
          48.4580926
        ],
        "type": "Point"
      }
    },
    {
      "type": "Feature",
      "properties": {
        "label": "II. JÓZSEF (1773)",
        "name": "KECSKEMÉT",
        "person": "II. JÓZSEF",
        "year": "1773",
        "road": 3
      },
      "geometry": {
        "coordinates": [
          19.6928069,
          46.9080791
        ],
        "type": "Point"
      }
    },
    {
      "type": "Feature",
      "properties": {
        "label": "II. JÓZSEF (1773)",
        "name": "KISKUNFÉLEGYHÁZA",
        "person": "II. JÓZSEF",
        "year": "1773",
        "road": 3
      },
      "geometry": {
        "coordinates": [
          19.8502905,
          46.7113263
        ],
        "type": "Point"
      }
    },
    {
      "type": "Feature",
      "properties": {
        "label": "II. JÓZSEF (1773)",
        "name": "KISTELEK",
        "person": "II. JÓZSEF",
        "year": "1773",
        "road": 3
      },
      "geometry": {
        "coordinates": [
          19.9812009,
          46.4704606
        ],
        "type": "Point"
      }
    },
    {
      "type": "Feature",
      "properties": {
        "label": "II. JÓZSEF (1773)",
        "name": "SZEGED",
        "person": "II. JÓZSEF",
        "year": "1773",
        "road": 3
      },
      "geometry": {
        "coordinates": [
          20.1486016,
          46.2546312
        ],
        "type": "Point"
      }
    },
    {
      "type": "Feature",
      "properties": {
        "label": "II. JÓZSEF (1773)",
        "name": "MAKÓ",
        "person": "II. JÓZSEF",
        "year": "1773",
        "road": 3
      },
      "geometry": {
        "coordinates": [
          20.4751022,
          46.2150438
        ],
        "type": "Point"
      }
    },
    {
      "type": "Feature",
      "properties": {
        "label": "II. JÓZSEF (1773)",
        "name": "NAGYLAK",
        "person": "II. JÓZSEF",
        "year": "1773",
        "road": 3
      },
      "geometry": {
        "coordinates": [
          20.7099536,
          46.1708718
        ],
        "type": "Point"
      }
    },
    {
      "type": "Feature",
      "properties": {
        "label": "II. JÓZSEF (1773)",
        "name": "PÉCSKA",
        "person": "II. JÓZSEF",
        "year": "1773",
        "road": 3
      },
      "geometry": {
        "coordinates": [
          21.0666809,
          46.1666788
        ],
        "type": "Point"
      }
    },
    {
      "type": "Feature",
      "properties": {
        "label": "II. JÓZSEF (1773)",
        "name": "ARAD",
        "person": "II. JÓZSEF",
        "year": "1773",
        "road": 3
      },
      "geometry": {
        "coordinates": [
          21.3196342,
          46.1753793
        ],
        "type": "Point"
      }
    },
    {
      "type": "Feature",
      "properties": {
        "label": "II. JÓZSEF (1773)",
        "name": "NÉMETSÁG",
        "person": "II. JÓZSEF",
        "year": "1773",
        "road": 3
      },
      "geometry": {
        "coordinates": [
          21.2814193,
          46.0633585
        ],
        "type": "Point"
      }
    },
    {
      "type": "Feature",
      "properties": {
        "label": "II. JÓZSEF (1773)",
        "name": "VINGA",
        "person": "II. JÓZSEF",
        "year": "1773",
        "road": 3
      },
      "geometry": {
        "coordinates": [
          21.2157252,
          46.016185
        ],
        "type": "Point"
      }
    },
    {
      "type": "Feature",
      "properties": {
        "label": "II. JÓZSEF (1773)",
        "name": "TEMESVÁR",
        "person": "II. JÓZSEF",
        "year": "1773",
        "road": 3
      },
      "geometry": {
        "coordinates": [
          21.2257474,
          45.7538355
        ],
        "type": "Point"
      }
    },
    {
      "type": "Feature",
      "properties": {
        "label": "II. JÓZSEF (1773)",
        "name": "TEMESSÁG",
        "person": "II. JÓZSEF",
        "year": "1773",
        "road": 3
      },
      "geometry": {
        "coordinates": [
          21.1743585,
          45.6506466
        ],
        "type": "Point"
      }
    },
    {
      "type": "Feature",
      "properties": {
        "label": "II. JÓZSEF (1773)",
        "name": "SZÉPHELY",
        "person": "II. JÓZSEF",
        "year": "1773",
        "road": 3
      },
      "geometry": {
        "coordinates": [
          21.213617,
          45.5555553
        ],
        "type": "Point"
      }
    },
    {
      "type": "Feature",
      "properties": {
        "label": "II. JÓZSEF (1773)",
        "name": "BOKSÁNBÁNYA",
        "person": "II. JÓZSEF",
        "year": "1773",
        "road": 3
      },
      "geometry": {
        "coordinates": [
          21.7312589,
          45.3781756
        ],
        "type": "Point"
      }
    },
    {
      "type": "Feature",
      "properties": {
        "label": "II. JÓZSEF (1773)",
        "name": "VERSEC",
        "person": "II. JÓZSEF",
        "year": "1773",
        "road": 3
      },
      "geometry": {
        "coordinates": [
          21.2960485,
          45.1211263
        ],
        "type": "Point"
      }
    },
    {
      "type": "Feature",
      "properties": {
        "label": "II. JÓZSEF (1773)",
        "name": "ALIBUNÁR",
        "person": "II. JÓZSEF",
        "year": "1773",
        "road": 3
      },
      "geometry": {
        "coordinates": [
          20.966524,
          45.0800389
        ],
        "type": "Point"
      }
    },
    {
      "type": "Feature",
      "properties": {
        "label": "II. JÓZSEF (1773)",
        "name": "PANCSOVA",
        "person": "II. JÓZSEF",
        "year": "1773",
        "road": 3
      },
      "geometry": {
        "coordinates": [
          20.6399643,
          44.8705686
        ],
        "type": "Point"
      }
    },
    {
      "type": "Feature",
      "properties": {
        "label": "II. JÓZSEF (1773)",
        "name": "TÁRCSÓ",
        "person": "II. JÓZSEF",
        "year": "1773",
        "road": 3
      },
      "geometry": {
        "coordinates": [
          20.6998149,
          44.8100472
        ],
        "type": "Point"
      }
    },
    {
      "type": "Feature",
      "properties": {
        "label": "II. JÓZSEF (1773)",
        "name": "OMLÓD",
        "person": "II. JÓZSEF",
        "year": "1773",
        "road": 3
      },
      "geometry": {
        "coordinates": [
          20.7310487,
          44.7607631
        ],
        "type": "Point"
      }
    },
    {
      "type": "Feature",
      "properties": {
        "label": "II. JÓZSEF (1773)",
        "name": "BERESZTÓC",
        "person": "II. JÓZSEF",
        "year": "1773",
        "road": 3
      },
      "geometry": {
        "coordinates": [
          20.8084452,
          44.7266366
        ],
        "type": "Point"
      }
    },
    {
      "type": "Feature",
      "properties": {
        "label": "II. JÓZSEF (1773)",
        "name": "KEVEPALLÓS",
        "person": "II. JÓZSEF",
        "year": "1773",
        "road": 3
      },
      "geometry": {
        "coordinates": [
          20.8841521,
          44.7242392
        ],
        "type": "Point"
      }
    },
    {
      "type": "Feature",
      "properties": {
        "label": "II. JÓZSEF (1773)",
        "name": "KEVEVÁRA",
        "person": "II. JÓZSEF",
        "year": "1773",
        "road": 3
      },
      "geometry": {
        "coordinates": [
          20.9781361,
          44.7412405
        ],
        "type": "Point"
      }
    },
    {
      "type": "Feature",
      "properties": {
        "label": "II. JÓZSEF (1773)",
        "name": "DUNADOMBÓ",
        "person": "II. JÓZSEF",
        "year": "1773",
        "road": 3
      },
      "geometry": {
        "coordinates": [
          21.2068951,
          44.7957843
        ],
        "type": "Point"
      }
    },
    {
      "type": "Feature",
      "properties": {
        "label": "II. JÓZSEF (1773)",
        "name": "FEHÉRTEMPLOM",
        "person": "II. JÓZSEF",
        "year": "1773",
        "road": 3
      },
      "geometry": {
        "coordinates": [
          21.422117,
          44.901587
        ],
        "type": "Point"
      }
    },
    {
      "type": "Feature",
      "properties": {
        "label": "II. JÓZSEF (1773)",
        "name": "FEHÉRTEMPLOM",
        "person": "II. JÓZSEF",
        "year": "1773",
        "road": 3
      },
      "geometry": {
        "coordinates": [
          21.422117,
          44.901587
        ],
        "type": "Point"
      }
    },
    {
      "type": "Feature",
      "properties": {
        "label": "II. JÓZSEF (1773)",
        "name": "NÉRASZLATINA",
        "person": "II. JÓZSEF",
        "year": "1773",
        "road": 3
      },
      "geometry": {
        "coordinates": [
          21.689692,
          44.9159374
        ],
        "type": "Point"
      }
    },
    {
      "type": "Feature",
      "properties": {
        "label": "II. JÓZSEF (1773)",
        "name": "SZÁSZKABÁNYA",
        "person": "II. JÓZSEF",
        "year": "1773",
        "road": 3
      },
      "geometry": {
        "coordinates": [
          21.7092861,
          44.8870081
        ],
        "type": "Point"
      }
    },
    {
      "type": "Feature",
      "properties": {
        "label": "II. JÓZSEF (1773)",
        "name": "MEHÁDIA",
        "person": "II. JÓZSEF",
        "year": "1773",
        "road": 3
      },
      "geometry": {
        "coordinates": [
          22.3654341,
          44.9043893
        ],
        "type": "Point"
      }
    },
    {
      "type": "Feature",
      "properties": {
        "label": "II. JÓZSEF (1773)",
        "name": "NAGYZSUPÁNY",
        "person": "II. JÓZSEF",
        "year": "1773",
        "road": 3
      },
      "geometry": {
        "coordinates": [
          22.3959081,
          44.7982105
        ],
        "type": "Point"
      }
    },
    {
      "type": "Feature",
      "properties": {
        "label": "II. JÓZSEF (1773)",
        "name": "ORSOVA",
        "person": "II. JÓZSEF",
        "year": "1773",
        "road": 3
      },
      "geometry": {
        "coordinates": [
          22.39350562963108,
          44.725787
        ],
        "type": "Point"
      }
    },
    {
      "type": "Feature",
      "properties": {
        "label": "II. JÓZSEF (1773)",
        "name": "MEHÁDIA",
        "person": "II. JÓZSEF",
        "year": "1773",
        "road": 3
      },
      "geometry": {
        "coordinates": [
          22.3654341,
          44.9043893
        ],
        "type": "Point"
      }
    },
    {
      "type": "Feature",
      "properties": {
        "label": "II. JÓZSEF (1773)",
        "name": "GOLBOR",
        "person": "II. JÓZSEF",
        "year": "1773",
        "road": 3
      },
      "geometry": {
        "coordinates": [
          22.3711221,
          45.0065979
        ],
        "type": "Point"
      }
    },
    {
      "type": "Feature",
      "properties": {
        "label": "II. JÓZSEF (1773)",
        "name": "SOMFA",
        "person": "II. JÓZSEF",
        "year": "1773",
        "road": 3
      },
      "geometry": {
        "coordinates": [
          22.3251641,
          45.0410801
        ],
        "type": "Point"
      }
    },
    {
      "type": "Feature",
      "properties": {
        "label": "II. JÓZSEF (1773)",
        "name": "SZÖRÉNYKANIZSA",
        "person": "II. JÓZSEF",
        "year": "1773",
        "road": 3
      },
      "geometry": {
        "coordinates": [
          22.3563752,
          45.0692162
        ],
        "type": "Point"
      }
    },
    {
      "type": "Feature",
      "properties": {
        "label": "II. JÓZSEF (1773)",
        "name": "RUSZKA",
        "person": "II. JÓZSEF",
        "year": "1773",
        "road": 3
      },
      "geometry": {
        "coordinates": [
          22.3358357,
          45.1461859
        ],
        "type": "Point"
      }
    },
    {
      "type": "Feature",
      "properties": {
        "label": "II. JÓZSEF (1773)",
        "name": "FÉNYES",
        "person": "II. JÓZSEF",
        "year": "1773",
        "road": 3
      },
      "geometry": {
        "coordinates": [
          22.3467803,
          45.1906571
        ],
        "type": "Point"
      }
    },
    {
      "type": "Feature",
      "properties": {
        "label": "II. JÓZSEF (1773)",
        "name": "ÖRMÉNYES",
        "person": "II. JÓZSEF",
        "year": "1773",
        "road": 3
      },
      "geometry": {
        "coordinates": [
          22.3100578,
          45.2093601
        ],
        "type": "Point"
      }
    },
    {
      "type": "Feature",
      "properties": {
        "label": "II. JÓZSEF (1773)",
        "name": "ILLÓPATAK",
        "person": "II. JÓZSEF",
        "year": "1773",
        "road": 3
      },
      "geometry": {
        "coordinates": [
          22.3415119,
          45.2777113
        ],
        "type": "Point"
      }
    },
    {
      "type": "Feature",
      "properties": {
        "label": "II. JÓZSEF (1773)",
        "name": "TEMESSZLATINA",
        "person": "II. JÓZSEF",
        "year": "1773",
        "road": 3
      },
      "geometry": {
        "coordinates": [
          22.2842442,
          45.2604821
        ],
        "type": "Point"
      }
    },
    {
      "type": "Feature",
      "properties": {
        "label": "II. JÓZSEF (1773)",
        "name": "KARÁNSEBES",
        "person": "II. JÓZSEF",
        "year": "1773",
        "road": 3
      },
      "geometry": {
        "coordinates": [
          22.218888376211915,
          45.412653000000006
        ],
        "type": "Point"
      }
    },
    {
      "type": "Feature",
      "properties": {
        "label": "II. JÓZSEF (1773)",
        "name": "MÁRGA",
        "person": "II. JÓZSEF",
        "year": "1773",
        "road": 3
      },
      "geometry": {
        "coordinates": [
          22.5185442,
          45.5030229
        ],
        "type": "Point"
      }
    },
    {
      "type": "Feature",
      "properties": {
        "label": "II. JÓZSEF (1773)",
        "name": "ZAJKÁNY",
        "person": "II. JÓZSEF",
        "year": "1773",
        "road": 3
      },
      "geometry": {
        "coordinates": [
          22.7269749,
          45.4998545
        ],
        "type": "Point"
      }
    },
    {
      "type": "Feature",
      "properties": {
        "label": "II. JÓZSEF (1773)",
        "name": "VÁRHELY",
        "person": "II. JÓZSEF",
        "year": "1773",
        "road": 3
      },
      "geometry": {
        "coordinates": [
          22.7825414,
          45.5152567
        ],
        "type": "Point"
      }
    },
    {
      "type": "Feature",
      "properties": {
        "label": "II. JÓZSEF (1773)",
        "name": "MEZŐLIVÁDIA",
        "person": "II. JÓZSEF",
        "year": "1773",
        "road": 3
      },
      "geometry": {
        "coordinates": [
          23.1291141,
          45.4898721
        ],
        "type": "Point"
      }
    },
    {
      "type": "Feature",
      "properties": {
        "label": "II. JÓZSEF (1773)",
        "name": "KRIVÁDIA",
        "person": "II. JÓZSEF",
        "year": "1773",
        "road": 3
      },
      "geometry": {
        "coordinates": [
          23.2027076,
          45.4656486
        ],
        "type": "Point"
      }
    },
    {
      "type": "Feature",
      "properties": {
        "label": "II. JÓZSEF (1773)",
        "name": "MEZŐLIVÁDIA",
        "person": "II. JÓZSEF",
        "year": "1773",
        "road": 3
      },
      "geometry": {
        "coordinates": [
          23.1291141,
          45.4898721
        ],
        "type": "Point"
      }
    },
    {
      "type": "Feature",
      "properties": {
        "label": "II. JÓZSEF (1773)",
        "name": "PUJ",
        "person": "II. JÓZSEF",
        "year": "1773",
        "road": 3
      },
      "geometry": {
        "coordinates": [
          23.0942294,
          45.5143154
        ],
        "type": "Point"
      }
    },
    {
      "type": "Feature",
      "properties": {
        "label": "II. JÓZSEF (1773)",
        "name": "HÁTSZEG",
        "person": "II. JÓZSEF",
        "year": "1773",
        "road": 3
      },
      "geometry": {
        "coordinates": [
          22.9486986,
          45.609725
        ],
        "type": "Point"
      }
    },
    {
      "type": "Feature",
      "properties": {
        "label": "II. JÓZSEF (1773)",
        "name": "VAJDAHUNYAD",
        "person": "II. JÓZSEF",
        "year": "1773",
        "road": 3
      },
      "geometry": {
        "coordinates": [
          22.9073792,
          45.7575221
        ],
        "type": "Point"
      }
    },
    {
      "type": "Feature",
      "properties": {
        "label": "II. JÓZSEF (1773)",
        "name": "DÉVA",
        "person": "II. JÓZSEF",
        "year": "1773",
        "road": 3
      },
      "geometry": {
        "coordinates": [
          22.9008611,
          45.8817402
        ],
        "type": "Point"
      }
    },
    {
      "type": "Feature",
      "properties": {
        "label": "II. JÓZSEF (1773)",
        "name": "PISKI",
        "person": "II. JÓZSEF",
        "year": "1773",
        "road": 3
      },
      "geometry": {
        "coordinates": [
          23.0162168,
          45.8475432
        ],
        "type": "Point"
      }
    },
    {
      "type": "Feature",
      "properties": {
        "label": "II. JÓZSEF (1773)",
        "name": "SZÁSZVÁROS",
        "person": "II. JÓZSEF",
        "year": "1773",
        "road": 3
      },
      "geometry": {
        "coordinates": [
          23.1958453,
          45.8367637
        ],
        "type": "Point"
      }
    },
    {
      "type": "Feature",
      "properties": {
        "label": "II. JÓZSEF (1773)",
        "name": "ALKENYÉR",
        "person": "II. JÓZSEF",
        "year": "1773",
        "road": 3
      },
      "geometry": {
        "coordinates": [
          23.3361763,
          45.9410607
        ],
        "type": "Point"
      }
    },
    {
      "type": "Feature",
      "properties": {
        "label": "II. JÓZSEF (1773)",
        "name": "ALVINC",
        "person": "II. JÓZSEF",
        "year": "1773",
        "road": 3
      },
      "geometry": {
        "coordinates": [
          23.4855701,
          45.9944325
        ],
        "type": "Point"
      }
    },
    {
      "type": "Feature",
      "properties": {
        "label": "II. JÓZSEF (1773)",
        "name": "GYULAFEHÉRVÁR",
        "person": "II. JÓZSEF",
        "year": "1773",
        "road": 3
      },
      "geometry": {
        "coordinates": [
          23.57207875207549,
          46.0713439
        ],
        "type": "Point"
      }
    },
    {
      "type": "Feature",
      "properties": {
        "label": "II. JÓZSEF (1773)",
        "name": "ZALATNA",
        "person": "II. JÓZSEF",
        "year": "1773",
        "road": 3
      },
      "geometry": {
        "coordinates": [
          23.2247191,
          46.1113532
        ],
        "type": "Point"
      }
    },
    {
      "type": "Feature",
      "properties": {
        "label": "II. JÓZSEF (1773)",
        "name": "GYULAFEHÉRVÁR",
        "person": "II. JÓZSEF",
        "year": "1773",
        "road": 3
      },
      "geometry": {
        "coordinates": [
          23.57207875207549,
          46.0713439
        ],
        "type": "Point"
      }
    },
    {
      "type": "Feature",
      "properties": {
        "label": "II. JÓZSEF (1773)",
        "name": "SZÁSZSEBES",
        "person": "II. JÓZSEF",
        "year": "1773",
        "road": 3
      },
      "geometry": {
        "coordinates": [
          23.5691574,
          45.9575384
        ],
        "type": "Point"
      }
    },
    {
      "type": "Feature",
      "properties": {
        "label": "II. JÓZSEF (1773)",
        "name": "NAGYAPOLD",
        "person": "II. JÓZSEF",
        "year": "1773",
        "road": 3
      },
      "geometry": {
        "coordinates": [
          23.8264841,
          45.8505029
        ],
        "type": "Point"
      }
    },
    {
      "type": "Feature",
      "properties": {
        "label": "II. JÓZSEF (1773)",
        "name": "SZELISTYE",
        "person": "II. JÓZSEF",
        "year": "1773",
        "road": 3
      },
      "geometry": {
        "coordinates": [
          23.8845754,
          45.7957186
        ],
        "type": "Point"
      }
    },
    {
      "type": "Feature",
      "properties": {
        "label": "II. JÓZSEF (1773)",
        "name": "ORLÁT",
        "person": "II. JÓZSEF",
        "year": "1773",
        "road": 3
      },
      "geometry": {
        "coordinates": [
          23.9671347,
          45.7562824
        ],
        "type": "Point"
      }
    },
    {
      "type": "Feature",
      "properties": {
        "label": "II. JÓZSEF (1773)",
        "name": "KERESZTÉNYSZIGET",
        "person": "II. JÓZSEF",
        "year": "1773",
        "road": 3
      },
      "geometry": {
        "coordinates": [
          24.0282908,
          45.783709
        ],
        "type": "Point"
      }
    },
    {
      "type": "Feature",
      "properties": {
        "label": "II. JÓZSEF (1773)",
        "name": "NAGYSZEBEN",
        "person": "II. JÓZSEF",
        "year": "1773",
        "road": 3
      },
      "geometry": {
        "coordinates": [
          24.1519202,
          45.7973912
        ],
        "type": "Point"
      }
    },
    {
      "type": "Feature",
      "properties": {
        "label": "II. JÓZSEF (1773)",
        "name": "ÚJEGYHÁZ",
        "person": "II. JÓZSEF",
        "year": "1773",
        "road": 3
      },
      "geometry": {
        "coordinates": [
          24.4548957,
          45.8953773
        ],
        "type": "Point"
      }
    },
    {
      "type": "Feature",
      "properties": {
        "label": "II. JÓZSEF (1773)",
        "name": "VESSZŐD",
        "person": "II. JÓZSEF",
        "year": "1773",
        "road": 3
      },
      "geometry": {
        "coordinates": [
          24.6412848,
          45.9296409
        ],
        "type": "Point"
      }
    },
    {
      "type": "Feature",
      "properties": {
        "label": "II. JÓZSEF (1773)",
        "name": "NAGYSINK",
        "person": "II. JÓZSEF",
        "year": "1773",
        "road": 3
      },
      "geometry": {
        "coordinates": [
          24.8038241,
          45.9147222
        ],
        "type": "Point"
      }
    },
    {
      "type": "Feature",
      "properties": {
        "label": "II. JÓZSEF (1773)",
        "name": "LEMNEK",
        "person": "II. JÓZSEF",
        "year": "1773",
        "road": 3
      },
      "geometry": {
        "coordinates": [
          25.0065161,
          45.9858466
        ],
        "type": "Point"
      }
    },
    {
      "type": "Feature",
      "properties": {
        "label": "II. JÓZSEF (1773)",
        "name": "KŐHALOM",
        "person": "II. JÓZSEF",
        "year": "1773",
        "road": 3
      },
      "geometry": {
        "coordinates": [
          25.2214949,
          46.0374491
        ],
        "type": "Point"
      }
    },
    {
      "type": "Feature",
      "properties": {
        "label": "II. JÓZSEF (1773)",
        "name": "SZÁSZBUDA",
        "person": "II. JÓZSEF",
        "year": "1773",
        "road": 3
      },
      "geometry": {
        "coordinates": [
          25.0597538,
          46.106675
        ],
        "type": "Point"
      }
    },
    {
      "type": "Feature",
      "properties": {
        "label": "II. JÓZSEF (1773)",
        "name": "SZÁSZKÉZD",
        "person": "II. JÓZSEF",
        "year": "1773",
        "road": 3
      },
      "geometry": {
        "coordinates": [
          24.961897,
          46.1941249
        ],
        "type": "Point"
      }
    },
    {
      "type": "Feature",
      "properties": {
        "label": "II. JÓZSEF (1773)",
        "name": "SEGESVÁR",
        "person": "II. JÓZSEF",
        "year": "1773",
        "road": 3
      },
      "geometry": {
        "coordinates": [
          24.7934483,
          46.2202037
        ],
        "type": "Point"
      }
    },
    {
      "type": "Feature",
      "properties": {
        "label": "II. JÓZSEF (1773)",
        "name": "ERZSÉBETVÁROS",
        "person": "II. JÓZSEF",
        "year": "1773",
        "road": 3
      },
      "geometry": {
        "coordinates": [
          24.5758333,
          46.2275000
        ],
        "type": "Point"
      }
    },
    {
      "type": "Feature",
      "properties": {
        "label": "II. JÓZSEF (1773)",
        "name": "MEDGYES",
        "person": "II. JÓZSEF",
        "year": "1773",
        "road": 3
      },
      "geometry": {
        "coordinates": [
          24.3473855,
          46.1625212
        ],
        "type": "Point"
      }
    },
    {
      "type": "Feature",
      "properties": {
        "label": "II. JÓZSEF (1773)",
        "name": "NAGYSELYK",
        "person": "II. JÓZSEF",
        "year": "1773",
        "road": 3
      },
      "geometry": {
        "coordinates": [
          24.1563438,
          46.0246931
        ],
        "type": "Point"
      }
    },
    {
      "type": "Feature",
      "properties": {
        "label": "II. JÓZSEF (1773)",
        "name": "SZELINDEK",
        "person": "II. JÓZSEF",
        "year": "1773",
        "road": 3
      },
      "geometry": {
        "coordinates": [
          24.15411,
          45.9190573
        ],
        "type": "Point"
      }
    },
    {
      "type": "Feature",
      "properties": {
        "label": "II. JÓZSEF (1773)",
        "name": "NAGYSZEBEN",
        "person": "II. JÓZSEF",
        "year": "1773",
        "road": 3
      },
      "geometry": {
        "coordinates": [
          24.1519202,
          45.7973912
        ],
        "type": "Point"
      }
    },
    {
      "type": "Feature",
      "properties": {
        "label": "II. JÓZSEF (1773)",
        "name": "NAGYTALMÁCS",
        "person": "II. JÓZSEF",
        "year": "1773",
        "road": 3
      },
      "geometry": {
        "coordinates": [
          24.2659424,
          45.6646194
        ],
        "type": "Point"
      }
    },
    {
      "type": "Feature",
      "properties": {
        "label": "II. JÓZSEF (1773)",
        "name": "VÖRÖSTORONY",
        "person": "II. JÓZSEF",
        "year": "1773",
        "road": 3
      },
      "geometry": {
        "coordinates": [
          24.2991365,
          45.6415249
        ],
        "type": "Point"
      }
    },
    {
      "type": "Feature",
      "properties": {
        "label": "II. JÓZSEF (1773)",
        "name": "FELEK",
        "person": "II. JÓZSEF",
        "year": "1773",
        "road": 3
      },
      "geometry": {
        "coordinates": [
          24.3759547,
          45.7272261
        ],
        "type": "Point"
      }
    },
    {
      "type": "Feature",
      "properties": {
        "label": "II. JÓZSEF (1773)",
        "name": "PORUMBÁK",
        "person": "II. JÓZSEF",
        "year": "1773",
        "road": 3
      },
      "geometry": {
        "coordinates": [
          24.2647191,
          46.4811033
        ],
        "type": "Point"
      }
    },
    {
      "type": "Feature",
      "properties": {
        "label": "II. JÓZSEF (1773)",
        "name": "ALSÓVIST",
        "person": "II. JÓZSEF",
        "year": "1773",
        "road": 3
      },
      "geometry": {
        "coordinates": [
          24.7237759,
          45.7952901
        ],
        "type": "Point"
      }
    },
    {
      "type": "Feature",
      "properties": {
        "label": "II. JÓZSEF (1773)",
        "name": "FOGARAS",
        "person": "II. JÓZSEF",
        "year": "1773",
        "road": 3
      },
      "geometry": {
        "coordinates": [
          24.9703224,
          45.8449433
        ],
        "type": "Point"
      }
    },
    {
      "type": "Feature",
      "properties": {
        "label": "II. JÓZSEF (1773)",
        "name": "KOPACSEL",
        "person": "II. JÓZSEF",
        "year": "1773",
        "road": 3
      },
      "geometry": {
        "coordinates": [
          24.9950128,
          45.7458494
        ],
        "type": "Point"
      }
    },
    {
      "type": "Feature",
      "properties": {
        "label": "II. JÓZSEF (1773)",
        "name": "MARGINEN",
        "person": "II. JÓZSEF",
        "year": "1773",
        "road": 3
      },
      "geometry": {
        "coordinates": [
          25.0461064,
          45.7311801
        ],
        "type": "Point"
      }
    },
    {
      "type": "Feature",
      "properties": {
        "label": "II. JÓZSEF (1773)",
        "name": "ÓSINKA",
        "person": "II. JÓZSEF",
        "year": "1773",
        "road": 3
      },
      "geometry": {
        "coordinates": [
          25.1706537,
          45.7631618
        ],
        "type": "Point"
      }
    },
    {
      "type": "Feature",
      "properties": {
        "label": "II. JÓZSEF (1773)",
        "name": "ÚJSINKA",
        "person": "II. JÓZSEF",
        "year": "1773",
        "road": 3
      },
      "geometry": {
        "coordinates": [
          25.2433552,
          45.6993096
        ],
        "type": "Point"
      }
    },
    {
      "type": "Feature",
      "properties": {
        "label": "II. JÓZSEF (1773)",
        "name": "ALMÁSMEZŐ",
        "person": "II. JÓZSEF",
        "year": "1773",
        "road": 3
      },
      "geometry": {
        "coordinates": [
          25.3067715,
          45.6061251
        ],
        "type": "Point"
      }
    },
    {
      "type": "Feature",
      "properties": {
        "label": "II. JÓZSEF (1773)",
        "name": "TÖRCSVÁR",
        "person": "II. JÓZSEF",
        "year": "1773",
        "road": 3
      },
      "geometry": {
        "coordinates": [
          25.371489,
          45.5163111
        ],
        "type": "Point"
      }
    },
    {
      "type": "Feature",
      "properties": {
        "label": "II. JÓZSEF (1773)",
        "name": "BARCAROZSNYÓ",
        "person": "II. JÓZSEF",
        "year": "1773",
        "road": 3
      },
      "geometry": {
        "coordinates": [
          25.4656159,
          45.5910307
        ],
        "type": "Point"
      }
    },
    {
      "type": "Feature",
      "properties": {
        "label": "II. JÓZSEF (1773)",
        "name": "BRASSÓ",
        "person": "II. JÓZSEF",
        "year": "1773",
        "road": 3
      },
      "geometry": {
        "coordinates": [
          25.6102746,
          45.6523093
        ],
        "type": "Point"
      }
    },
    {
      "type": "Feature",
      "properties": {
        "label": "II. JÓZSEF (1773)",
        "name": "BODZAFORDULÓ",
        "person": "II. JÓZSEF",
        "year": "1773",
        "road": 3
      },
      "geometry": {
        "coordinates": [
          26.030915,
          45.6750439
        ],
        "type": "Point"
      }
    },
    {
      "type": "Feature",
      "properties": {
        "label": "II. JÓZSEF (1773)",
        "name": "ZÁGON",
        "person": "II. JÓZSEF",
        "year": "1773",
        "road": 3
      },
      "geometry": {
        "coordinates": [
          22.1787677,
          48.4029055
        ],
        "type": "Point"
      }
    },
    {
      "type": "Feature",
      "properties": {
        "label": "II. JÓZSEF (1773)",
        "name": "PAPOLC",
        "person": "II. JÓZSEF",
        "year": "1773",
        "road": 3
      },
      "geometry": {
        "coordinates": [
          26.1447532,
          45.7894651
        ],
        "type": "Point"
      }
    },
    {
      "type": "Feature",
      "properties": {
        "label": "II. JÓZSEF (1773)",
        "name": "KOVÁSZNA",
        "person": "II. JÓZSEF",
        "year": "1773",
        "road": 3
      },
      "geometry": {
        "coordinates": [
          26.1693108,
          45.8448991
        ],
        "type": "Point"
      }
    },
    {
      "type": "Feature",
      "properties": {
        "label": "II. JÓZSEF (1773)",
        "name": "ZABOLA",
        "person": "II. JÓZSEF",
        "year": "1773",
        "road": 3
      },
      "geometry": {
        "coordinates": [
          26.1906695,
          45.8937494
        ],
        "type": "Point"
      }
    },
    {
      "type": "Feature",
      "properties": {
        "label": "II. JÓZSEF (1773)",
        "name": "GELENCE",
        "person": "II. JÓZSEF",
        "year": "1773",
        "road": 3
      },
      "geometry": {
        "coordinates": [
          26.2411332,
          45.9431761
        ],
        "type": "Point"
      }
    },
    {
      "type": "Feature",
      "properties": {
        "label": "II. JÓZSEF (1773)",
        "name": "HILIB",
        "person": "II. JÓZSEF",
        "year": "1773",
        "road": 3
      },
      "geometry": {
        "coordinates": [
          26.2383866,
          45.9712206
        ],
        "type": "Point"
      }
    },
    {
      "type": "Feature",
      "properties": {
        "label": "II. JÓZSEF (1773)",
        "name": "BERECK",
        "person": "II. JÓZSEF",
        "year": "1773",
        "road": 3
      },
      "geometry": {
        "coordinates": [
          26.3021371,
          46.0442336
        ],
        "type": "Point"
      }
    },
    {
      "type": "Feature",
      "properties": {
        "label": "II. JÓZSEF (1773)",
        "name": "KÉZDIVÁSÁRHELY",
        "person": "II. JÓZSEF",
        "year": "1773",
        "road": 3
      },
      "geometry": {
        "coordinates": [
          26.1373615,
          46.0007042
        ],
        "type": "Point"
      }
    },
    {
      "type": "Feature",
      "properties": {
        "label": "II. JÓZSEF (1773)",
        "name": "KÁSZONÚJFALU",
        "person": "II. JÓZSEF",
        "year": "1773",
        "road": 3
      },
      "geometry": {
        "coordinates": [
          26.0486107,
          46.19712
        ],
        "type": "Point"
      }
    },
    {
      "type": "Feature",
      "properties": {
        "label": "II. JÓZSEF (1773)",
        "name": "CSÍKKOZMÁS",
        "person": "II. JÓZSEF",
        "year": "1773",
        "road": 3
      },
      "geometry": {
        "coordinates": [
          25.941072,
          46.2264807
        ],
        "type": "Point"
      }
    },
    {
      "type": "Feature",
      "properties": {
        "label": "II. JÓZSEF (1773)",
        "name": "CSÍKSZEREDA",
        "person": "II. JÓZSEF",
        "year": "1773",
        "road": 3
      },
      "geometry": {
        "coordinates": [
          25.802126174999998,
          46.361187
        ],
        "type": "Point"
      }
    },
    {
      "type": "Feature",
      "properties": {
        "label": "II. JÓZSEF (1773)",
        "name": "MADÉFALVA",
        "person": "II. JÓZSEF",
        "year": "1773",
        "road": 3
      },
      "geometry": {
        "coordinates": [
          25.7590211,
          46.4360992
        ],
        "type": "Point"
      }
    },
    {
      "type": "Feature",
      "properties": {
        "label": "II. JÓZSEF (1773)",
        "name": "KARCFALVA",
        "person": "II. JÓZSEF",
        "year": "1773",
        "road": 3
      },
      "geometry": {
        "coordinates": [
          25.7590447,
          46.5330697
        ],
        "type": "Point"
      }
    },
    {
      "type": "Feature",
      "properties": {
        "label": "II. JÓZSEF (1773)",
        "name": "GYERGYÓSZENTMIKLÓS",
        "person": "II. JÓZSEF",
        "year": "1773",
        "road": 3
      },
      "geometry": {
        "coordinates": [
          25.5998915,
          46.7213467
        ],
        "type": "Point"
      }
    },
    {
      "type": "Feature",
      "properties": {
        "label": "II. JÓZSEF (1773)",
        "name": "GYERGYÓSZENTMIKLÓS",
        "person": "II. JÓZSEF",
        "year": "1773",
        "road": 3
      },
      "geometry": {
        "coordinates": [
          25.5998915,
          46.7213467
        ],
        "type": "Point"
      }
    },
    {
      "type": "Feature",
      "properties": {
        "label": "II. JÓZSEF (1773)",
        "name": "GYERGYÓCSOMAFALVA",
        "person": "II. JÓZSEF",
        "year": "1773",
        "road": 3
      },
      "geometry": {
        "coordinates": [
          25.5178635,
          46.6782885
        ],
        "type": "Point"
      }
    },
    {
      "type": "Feature",
      "properties": {
        "label": "II. JÓZSEF (1773)",
        "name": "PARAJD",
        "person": "II. JÓZSEF",
        "year": "1773",
        "road": 3
      },
      "geometry": {
        "coordinates": [
          25.1245222,
          46.5529119
        ],
        "type": "Point"
      }
    },
    {
      "type": "Feature",
      "properties": {
        "label": "II. JÓZSEF (1773)",
        "name": "NYÁRÁDREMETE",
        "person": "II. JÓZSEF",
        "year": "1773",
        "road": 3
      },
      "geometry": {
        "coordinates": [
          24.9241108,
          46.6616859
        ],
        "type": "Point"
      }
    },
    {
      "type": "Feature",
      "properties": {
        "label": "II. JÓZSEF (1773)",
        "name": "SZÁSZRÉGEN",
        "person": "II. JÓZSEF",
        "year": "1773",
        "road": 3
      },
      "geometry": {
        "coordinates": [
          24.7000238,
          46.7796886
        ],
        "type": "Point"
      }
    },
    {
      "type": "Feature",
      "properties": {
        "label": "II. JÓZSEF (1773)",
        "name": "JÁD",
        "person": "II. JÓZSEF",
        "year": "1773",
        "road": 3
      },
      "geometry": {
        "coordinates": [
          24.5730451,
          47.1810349
        ],
        "type": "Point"
      }
    },
    {
      "type": "Feature",
      "properties": {
        "label": "II. JÓZSEF (1773)",
        "name": "BORGÓPRUND",
        "person": "II. JÓZSEF",
        "year": "1773",
        "road": 3
      },
      "geometry": {
        "coordinates": [
          24.7406598,
          47.2201539
        ],
        "type": "Point"
      }
    },
    {
      "type": "Feature",
      "properties": {
        "label": "II. JÓZSEF (1773)",
        "name": "Măgura",
        "person": "II. JÓZSEF",
        "year": "1773",
        "road": 3
      },
      "geometry": {
        "coordinates": [
          23.1436061,
          46.2467922
        ],
        "type": "Point"
      }
    },
    {
      "type": "Feature",
      "properties": {
        "label": "II. JÓZSEF (1773)",
        "name": "ÓRADNA",
        "person": "II. JÓZSEF",
        "year": "1773",
        "road": 3
      },
      "geometry": {
        "coordinates": [
          24.8162961,
          47.4230338
        ],
        "type": "Point"
      }
    },
    {
      "type": "Feature",
      "properties": {
        "label": "II. JÓZSEF (1773)",
        "name": "KISILVA",
        "person": "II. JÓZSEF",
        "year": "1773",
        "road": 3
      },
      "geometry": {
        "coordinates": [
          24.6504841,
          47.3128311
        ],
        "type": "Point"
      }
    },
    {
      "type": "Feature",
      "properties": {
        "label": "II. JÓZSEF (1773)",
        "name": "SZAMOSMAKÓD",
        "person": "II. JÓZSEF",
        "year": "1773",
        "road": 3
      },
      "geometry": {
        "coordinates": [
          24.2969812,
          47.2624878
        ],
        "type": "Point"
      }
    },
    {
      "type": "Feature",
      "properties": {
        "label": "II. JÓZSEF (1773)",
        "name": "BETHLEN",
        "person": "II. JÓZSEF",
        "year": "1773",
        "road": 3
      },
      "geometry": {
        "coordinates": [
          24.1791099,
          47.1799314
        ],
        "type": "Point"
      }
    },
    {
      "type": "Feature",
      "properties": {
        "label": "II. JÓZSEF (1773)",
        "name": "DÉS",
        "person": "II. JÓZSEF",
        "year": "1773",
        "road": 3
      },
      "geometry": {
        "coordinates": [
          23.8759884,
          47.1426672
        ],
        "type": "Point"
      }
    },
    {
      "type": "Feature",
      "properties": {
        "label": "II. JÓZSEF (1773)",
        "name": "DÉSAKNA",
        "person": "II. JÓZSEF",
        "year": "1773",
        "road": 3
      },
      "geometry": {
        "coordinates": [
          23.8596764,
          47.1154652
        ],
        "type": "Point"
      }
    },
    {
      "type": "Feature",
      "properties": {
        "label": "II. JÓZSEF (1773)",
        "name": "DÉS",
        "person": "II. JÓZSEF",
        "year": "1773",
        "road": 3
      },
      "geometry": {
        "coordinates": [
          23.8759884,
          47.1426672
        ],
        "type": "Point"
      }
    },
    {
      "type": "Feature",
      "properties": {
        "label": "II. JÓZSEF (1773)",
        "name": "SZAMOSÚJVÁR",
        "person": "II. JÓZSEF",
        "year": "1773",
        "road": 3
      },
      "geometry": {
        "coordinates": [
          23.9077402,
          47.0287702
        ],
        "type": "Point"
      }
    },
    {
      "type": "Feature",
      "properties": {
        "label": "II. JÓZSEF (1773)",
        "name": "KOLOZSVÁR",
        "person": "II. JÓZSEF",
        "year": "1773",
        "road": 3
      },
      "geometry": {
        "coordinates": [
          23.5899542,
          46.769379
        ],
        "type": "Point"
      }
    },
    {
      "type": "Feature",
      "properties": {
        "label": "II. JÓZSEF (1773)",
        "name": "TORDA",
        "person": "II. JÓZSEF",
        "year": "1773",
        "road": 3
      },
      "geometry": {
        "coordinates": [
          23.7798424,
          46.5649706
        ],
        "type": "Point"
      }
    },
    {
      "type": "Feature",
      "properties": {
        "label": "II. JÓZSEF (1773)",
        "name": "NAGYENYED",
        "person": "II. JÓZSEF",
        "year": "1773",
        "road": 3
      },
      "geometry": {
        "coordinates": [
          23.7188181,
          46.3108893
        ],
        "type": "Point"
      }
    },
    {
      "type": "Feature",
      "properties": {
        "label": "II. JÓZSEF (1773)",
        "name": "GYULAFEHÉRVÁR",
        "person": "II. JÓZSEF",
        "year": "1773",
        "road": 3
      },
      "geometry": {
        "coordinates": [
          23.57207875207549,
          46.0713439
        ],
        "type": "Point"
      }
    },
    {
      "type": "Feature",
      "properties": {
        "label": "II. JÓZSEF (1773)",
        "name": "NAGYSZEBEN",
        "person": "II. JÓZSEF",
        "year": "1773",
        "road": 3
      },
      "geometry": {
        "coordinates": [
          24.1519202,
          45.7973912
        ],
        "type": "Point"
      }
    },
    {
      "type": "Feature",
      "properties": {
        "label": "II. JÓZSEF (1773)",
        "name": "NAGYSELYK",
        "person": "II. JÓZSEF",
        "year": "1773",
        "road": 3
      },
      "geometry": {
        "coordinates": [
          24.1563438,
          46.0246931
        ],
        "type": "Point"
      }
    },
    {
      "type": "Feature",
      "properties": {
        "label": "II. JÓZSEF (1773)",
        "name": "MEDGYES",
        "person": "II. JÓZSEF",
        "year": "1773",
        "road": 3
      },
      "geometry": {
        "coordinates": [
          24.3473855,
          46.1625212
        ],
        "type": "Point"
      }
    },
    {
      "type": "Feature",
      "properties": {
        "label": "II. JÓZSEF (1773)",
        "name": "MAROSVÁSÁRHELY",
        "person": "II. JÓZSEF",
        "year": "1773",
        "road": 3
      },
      "geometry": {
        "coordinates": [
          24.561196,
          46.5446253
        ],
        "type": "Point"
      }
    },
    {
      "type": "Feature",
      "properties": {
        "label": "II. JÓZSEF (1773)",
        "name": "SZÁSZRÉGEN",
        "person": "II. JÓZSEF",
        "year": "1773",
        "road": 3
      },
      "geometry": {
        "coordinates": [
          24.7000238,
          46.7796886
        ],
        "type": "Point"
      }
    },
    {
      "type": "Feature",
      "properties": {
        "label": "II. JÓZSEF (1773)",
        "name": "NAGYSAJÓ",
        "person": "II. JÓZSEF",
        "year": "1773",
        "road": 3
      },
      "geometry": {
        "coordinates": [
          24.6085494,
          47.0010728
        ],
        "type": "Point"
      }
    },
    {
      "type": "Feature",
      "properties": {
        "label": "II. JÓZSEF (1773)",
        "name": "BESZTERCE",
        "person": "II. JÓZSEF",
        "year": "1773",
        "road": 3
      },
      "geometry": {
        "coordinates": [
          24.49755169876672,
          47.13897525
        ],
        "type": "Point"
      }
    },
    {
      "type": "Feature",
      "properties": {
        "label": "II. JÓZSEF (1773)",
        "name": "NAGYDEMETER",
        "person": "II. JÓZSEF",
        "year": "1773",
        "road": 3
      },
      "geometry": {
        "coordinates": [
          24.4694484,
          47.2223535
        ],
        "type": "Point"
      }
    },
    {
      "type": "Feature",
      "properties": {
        "label": "II. JÓZSEF (1773)",
        "name": "TELCS",
        "person": "II. JÓZSEF",
        "year": "1773",
        "road": 3
      },
      "geometry": {
        "coordinates": [
          24.396925,
          47.4306056
        ],
        "type": "Point"
      }
    },
    {
      "type": "Feature",
      "properties": {
        "label": "II. JÓZSEF (1773)",
        "name": "ROMOLY",
        "person": "II. JÓZSEF",
        "year": "1773",
        "road": 3
      },
      "geometry": {
        "coordinates": [
          24.4369846,
          47.5461495
        ],
        "type": "Point"
      }
    },
    {
      "type": "Feature",
      "properties": {
        "label": "II. JÓZSEF (1773)",
        "name": "IZASZACSAL",
        "person": "II. JÓZSEF",
        "year": "1773",
        "road": 3
      },
      "geometry": {
        "coordinates": [
          24.4350779,
          47.6368972
        ],
        "type": "Point"
      }
    },
    {
      "type": "Feature",
      "properties": {
        "label": "II. JÓZSEF (1773)",
        "name": "MAJSZIN",
        "person": "II. JÓZSEF",
        "year": "1773",
        "road": 3
      },
      "geometry": {
        "coordinates": [
          24.5489936,
          47.6542533
        ],
        "type": "Point"
      }
    },
    {
      "type": "Feature",
      "properties": {
        "label": "II. JÓZSEF (1773)",
        "name": "IZASZACSAL",
        "person": "II. JÓZSEF",
        "year": "1773",
        "road": 3
      },
      "geometry": {
        "coordinates": [
          24.4350779,
          47.6368972
        ],
        "type": "Point"
      }
    },
    {
      "type": "Feature",
      "properties": {
        "label": "II. JÓZSEF (1773)",
        "name": "MÁRAMAROSSZIGET",
        "person": "II. JÓZSEF",
        "year": "1773",
        "road": 3
      },
      "geometry": {
        "coordinates": [
          23.8915583,
          47.9283242
        ],
        "type": "Point"
      }
    },
    {
      "type": "Feature",
      "properties": {
        "label": "II. JÓZSEF (1773)",
        "name": "RÓNASZÉK",
        "person": "II. JÓZSEF",
        "year": "1773",
        "road": 3
      },
      "geometry": {
        "coordinates": [
          24.0303173,
          47.8793119
        ],
        "type": "Point"
      }
    },
    {
      "type": "Feature",
      "properties": {
        "label": "II. JÓZSEF (1773)",
        "name": "MÁRAMAROSSZIGET",
        "person": "II. JÓZSEF",
        "year": "1773",
        "road": 3
      },
      "geometry": {
        "coordinates": [
          23.8915583,
          47.9283242
        ],
        "type": "Point"
      }
    },
    {
      "type": "Feature",
      "properties": {
        "label": "II. JÓZSEF (1773)",
        "name": "NAGYBOCSKÓ",
        "person": "II. JÓZSEF",
        "year": "1773",
        "road": 3
      },
      "geometry": {
        "coordinates": [
          24.0147396,
          47.973549
        ],
        "type": "Point"
      }
    },
    {
      "type": "Feature",
      "properties": {
        "label": "II. JÓZSEF (1773)",
        "name": "RAHÓ",
        "person": "II. JÓZSEF",
        "year": "1773",
        "road": 3
      },
      "geometry": {
        "coordinates": [
          24.2057063,
          48.0556765
        ],
        "type": "Point"
      }
    },
    {
      "type": "Feature",
      "properties": {
        "label": "II. JÓZSEF (1773)",
        "name": "TISZABORKÚT",
        "person": "II. JÓZSEF",
        "year": "1773",
        "road": 3
      },
      "geometry": {
        "coordinates": [
          24.281851,
          48.14793
        ],
        "type": "Point"
      }
    },
    {
      "type": "Feature",
      "properties": {
        "label": "II. JÓZSEF (1773)",
        "name": "TISZABORKÚT",
        "person": "II. JÓZSEF",
        "year": "1773",
        "road": 3
      },
      "geometry": {
        "coordinates": [
          24.281851,
          48.14793
        ],
        "type": "Point"
      }
    },
    {
      "type": "Feature",
      "properties": {
        "label": "II. JÓZSEF (1773)",
        "name": "RAHÓ",
        "person": "II. JÓZSEF",
        "year": "1773",
        "road": 3
      },
      "geometry": {
        "coordinates": [
          24.2057063,
          48.0556765
        ],
        "type": "Point"
      }
    },
    {
      "type": "Feature",
      "properties": {
        "label": "II. JÓZSEF (1773)",
        "name": "GYERTYÁNLIGET",
        "person": "II. JÓZSEF",
        "year": "1773",
        "road": 3
      },
      "geometry": {
        "coordinates": [
          24.0641799,
          48.0566001
        ],
        "type": "Point"
      }
    },
    {
      "type": "Feature",
      "properties": {
        "label": "II. JÓZSEF (1773)",
        "name": "NAGYBOCSKÓ",
        "person": "II. JÓZSEF",
        "year": "1773",
        "road": 3
      },
      "geometry": {
        "coordinates": [
          24.0147396,
          47.973549
        ],
        "type": "Point"
      }
    },
    {
      "type": "Feature",
      "properties": {
        "label": "II. JÓZSEF (1773)",
        "name": "MÁRAMAROSSZIGET",
        "person": "II. JÓZSEF",
        "year": "1773",
        "road": 3
      },
      "geometry": {
        "coordinates": [
          23.8915583,
          47.9283242
        ],
        "type": "Point"
      }
    },
    {
      "type": "Feature",
      "properties": {
        "label": "II. JÓZSEF (1773)",
        "name": "HUSZT",
        "person": "II. JÓZSEF",
        "year": "1773",
        "road": 3
      },
      "geometry": {
        "coordinates": [
          23.291166,
          48.1764917
        ],
        "type": "Point"
      }
    },
    {
      "type": "Feature",
      "properties": {
        "label": "II. JÓZSEF (1773)",
        "name": "ALSÓHIDEGPATAK",
        "person": "II. JÓZSEF",
        "year": "1773",
        "road": 3
      },
      "geometry": {
        "coordinates": [
          23.3660732,
          48.7045798
        ],
        "type": "Point"
      }
    },
    {
      "type": "Feature",
      "properties": {
        "label": "II. JÓZSEF (1773)",
        "name": "MUNKÁCS",
        "person": "II. JÓZSEF",
        "year": "1773",
        "road": 3
      },
      "geometry": {
        "coordinates": [
          22.7185112,
          48.4421438
        ],
        "type": "Point"
      }
    },
    {
      "type": "Feature",
      "properties": {
        "label": "II. JÓZSEF (1773)",
        "name": "NAGYMIHÁLY",
        "person": "II. JÓZSEF",
        "year": "1773",
        "road": 3
      },
      "geometry": {
        "coordinates": [
          21.9211949,
          48.7514383
        ],
        "type": "Point"
      }
    },
    {
      "type": "Feature",
      "properties": {
        "label": "II. JÓZSEF (1773)",
        "name": "BACSKÓ",
        "person": "II. JÓZSEF",
        "year": "1773",
        "road": 3
      },
      "geometry": {
        "coordinates": [
          21.6243645,
          48.7392974
        ],
        "type": "Point"
      }
    },
    {
      "type": "Feature",
      "properties": {
        "label": "II. JÓZSEF (1773)",
        "name": "KASSA",
        "person": "II. JÓZSEF",
        "year": "1773",
        "road": 3
      },
      "geometry": {
        "coordinates": [
          21.2496774,
          48.7172272
        ],
        "type": "Point"
      }
    },
    {
      "type": "Feature",
      "properties": {
        "label": "Domenico SESTINI (1780)",
        "name": "BUKAREST",
        "person": "Domenico SESTINI",
        "year": "1780",
        "road": 4
      },
      "geometry": {
        "coordinates": [
          26.1027202,
          44.4361414
        ],
        "type": "Point"
      }
    },
    {
      "type": "Feature",
      "properties": {
        "label": "Domenico SESTINI (1780)",
        "name": "COTROCENI",
        "person": "Domenico SESTINI",
        "year": "1780",
        "road": 4
      },
      "geometry": {
        "coordinates": [
          26.0708103,
          44.4311178
        ],
        "type": "Point"
      }
    },
    {
      "type": "Feature",
      "properties": {
        "label": "Domenico SESTINI (1780)",
        "name": "ROȘU",
        "person": "Domenico SESTINI",
        "year": "1780",
        "road": 4
      },
      "geometry": {
        "coordinates": [
          27.956855,
          46.9885631
        ],
        "type": "Point"
      }
    },
    {
      "type": "Feature",
      "properties": {
        "label": "Domenico SESTINI (1780)",
        "name": "FLOREȘTI",
        "person": "Domenico SESTINI",
        "year": "1780",
        "road": 4
      },
      "geometry": {
        "coordinates": [
          23.1490826,
          46.292509
        ],
        "type": "Point"
      }
    },
    {
      "type": "Feature",
      "properties": {
        "label": "Domenico SESTINI (1780)",
        "name": "GĂIEȘTI",
        "person": "Domenico SESTINI",
        "year": "1780",
        "road": 4
      },
      "geometry": {
        "coordinates": [
          24.6708799,
          46.4254974
        ],
        "type": "Point"
      }
    },
    {
      "type": "Feature",
      "properties": {
        "label": "Domenico SESTINI (1780)",
        "name": "PITEȘTI",
        "person": "Domenico SESTINI",
        "year": "1780",
        "road": 4
      },
      "geometry": {
        "coordinates": [
          24.8719422,
          44.8572343
        ],
        "type": "Point"
      }
    },
    {
      "type": "Feature",
      "properties": {
        "label": "Domenico SESTINI (1780)",
        "name": "CURTEA",
        "person": "Domenico SESTINI",
        "year": "1780",
        "road": 4
      },
      "geometry": {
        "coordinates": [
          24.1345196,
          44.9640532
        ],
        "type": "Point"
      }
    },
    {
      "type": "Feature",
      "properties": {
        "label": "Domenico SESTINI (1780)",
        "name": "SĂLĂTRUCU",
        "person": "Domenico SESTINI",
        "year": "1780",
        "road": 4
      },
      "geometry": {
        "coordinates": [
          24.5136271,
          45.3203233
        ],
        "type": "Point"
      }
    },
    {
      "type": "Feature",
      "properties": {
        "label": "Domenico SESTINI (1780)",
        "name": "PERIȘANI",
        "person": "Domenico SESTINI",
        "year": "1780",
        "road": 4
      },
      "geometry": {
        "coordinates": [
          24.4112846,
          45.3747786
        ],
        "type": "Point"
      }
    },
    {
      "type": "Feature",
      "properties": {
        "label": "Domenico SESTINI (1780)",
        "name": "SPINU",
        "person": "Domenico SESTINI",
        "year": "1780",
        "road": 4
      },
      "geometry": {
        "coordinates": [
          24.4038347,
          45.3908133
        ],
        "type": "Point"
      }
    },
    {
      "type": "Feature",
      "properties": {
        "label": "Domenico SESTINI (1780)",
        "name": "CUCOIU",
        "person": "Domenico SESTINI",
        "year": "1780",
        "road": 4
      },
      "geometry": {
        "coordinates": [
          24.3947422,
          45.4056551
        ],
        "type": "Point"
      }
    },
    {
      "type": "Feature",
      "properties": {
        "label": "Domenico SESTINI (1780)",
        "name": "TITEȘTI",
        "person": "Domenico SESTINI",
        "year": "1780",
        "road": 4
      },
      "geometry": {
        "coordinates": [
          24.3900571,
          45.4186581
        ],
        "type": "Point"
      }
    },
    {
      "type": "Feature",
      "properties": {
        "label": "Domenico SESTINI (1780)",
        "name": "BOIȘOARA",
        "person": "Domenico SESTINI",
        "year": "1780",
        "road": 4
      },
      "geometry": {
        "coordinates": [
          24.3836649,
          45.4423183
        ],
        "type": "Point"
      }
    },
    {
      "type": "Feature",
      "properties": {
        "label": "Domenico SESTINI (1780)",
        "name": "GĂUJANI",
        "person": "Domenico SESTINI",
        "year": "1780",
        "road": 4
      },
      "geometry": {
        "coordinates": [
          24.3768525,
          45.4529763
        ],
        "type": "Point"
      }
    },
    {
      "type": "Feature",
      "properties": {
        "label": "Domenico SESTINI (1780)",
        "name": "GREBLEȘTI",
        "person": "Domenico SESTINI",
        "year": "1780",
        "road": 4
      },
      "geometry": {
        "coordinates": [
          28.6137931,
          47.2405602
        ],
        "type": "Point"
      }
    },
    {
      "type": "Feature",
      "properties": {
        "label": "Domenico SESTINI (1780)",
        "name": "CÂINENI",
        "person": "Domenico SESTINI",
        "year": "1780",
        "road": 4
      },
      "geometry": {
        "coordinates": [
          24.302758009519764,
          45.51541775
        ],
        "type": "Point"
      }
    },
    {
      "type": "Feature",
      "properties": {
        "label": "Domenico SESTINI (1780)",
        "name": "VÖRÖSTORONY",
        "person": "Domenico SESTINI",
        "year": "1780",
        "road": 4
      },
      "geometry": {
        "coordinates": [
          24.2991365,
          45.6415249
        ],
        "type": "Point"
      }
    },
    {
      "type": "Feature",
      "properties": {
        "label": "Domenico SESTINI (1780)",
        "name": "NAGYTALMÁCS",
        "person": "Domenico SESTINI",
        "year": "1780",
        "road": 4
      },
      "geometry": {
        "coordinates": [
          24.2659424,
          45.6646194
        ],
        "type": "Point"
      }
    },
    {
      "type": "Feature",
      "properties": {
        "label": "Domenico SESTINI (1780)",
        "name": "SELLENBERK",
        "person": "Domenico SESTINI",
        "year": "1780",
        "road": 4
      },
      "geometry": {
        "coordinates": [
          24.1909657,
          45.7694368
        ],
        "type": "Point"
      }
    },
    {
      "type": "Feature",
      "properties": {
        "label": "Domenico SESTINI (1780)",
        "name": "NAGYSZEBEN",
        "person": "Domenico SESTINI",
        "year": "1780",
        "road": 4
      },
      "geometry": {
        "coordinates": [
          24.1519202,
          45.7973912
        ],
        "type": "Point"
      }
    },
    {
      "type": "Feature",
      "properties": {
        "label": "Domenico SESTINI (1780)",
        "name": "VIZAKNA",
        "person": "Domenico SESTINI",
        "year": "1780",
        "road": 4
      },
      "geometry": {
        "coordinates": [
          24.0576688,
          45.8804278
        ],
        "type": "Point"
      }
    },
    {
      "type": "Feature",
      "properties": {
        "label": "Domenico SESTINI (1780)",
        "name": "NAGYSZEBEN",
        "person": "Domenico SESTINI",
        "year": "1780",
        "road": 4
      },
      "geometry": {
        "coordinates": [
          24.1519202,
          45.7973912
        ],
        "type": "Point"
      }
    },
    {
      "type": "Feature",
      "properties": {
        "label": "Domenico SESTINI (1780)",
        "name": "OROSZCSŰR",
        "person": "Domenico SESTINI",
        "year": "1780",
        "road": 4
      },
      "geometry": {
        "coordinates": [
          24.0280223,
          45.8148761
        ],
        "type": "Point"
      }
    },
    {
      "type": "Feature",
      "properties": {
        "label": "Domenico SESTINI (1780)",
        "name": "OMLÁS",
        "person": "Domenico SESTINI",
        "year": "1780",
        "road": 4
      },
      "geometry": {
        "coordinates": [
          23.8969933,
          45.8455332
        ],
        "type": "Point"
      }
    },
    {
      "type": "Feature",
      "properties": {
        "label": "Domenico SESTINI (1780)",
        "name": "KISAPOLD",
        "person": "Domenico SESTINI",
        "year": "1780",
        "road": 4
      },
      "geometry": {
        "coordinates": [
          23.8462731,
          45.8794675
        ],
        "type": "Point"
      }
    },
    {
      "type": "Feature",
      "properties": {
        "label": "Domenico SESTINI (1780)",
        "name": "SZERDAHELY",
        "person": "Domenico SESTINI",
        "year": "1780",
        "road": 4
      },
      "geometry": {
        "coordinates": [
          16.3105179,
          46.7712255
        ],
        "type": "Point"
      }
    },
    {
      "type": "Feature",
      "properties": {
        "label": "Domenico SESTINI (1780)",
        "name": "SZÁSZSEBES",
        "person": "Domenico SESTINI",
        "year": "1780",
        "road": 4
      },
      "geometry": {
        "coordinates": [
          23.5691574,
          45.9575384
        ],
        "type": "Point"
      }
    },
    {
      "type": "Feature",
      "properties": {
        "label": "Domenico SESTINI (1780)",
        "name": "GYULAFEHÉRVÁR",
        "person": "Domenico SESTINI",
        "year": "1780",
        "road": 4
      },
      "geometry": {
        "coordinates": [
          23.57207875207549,
          46.0713439
        ],
        "type": "Point"
      }
    },
    {
      "type": "Feature",
      "properties": {
        "label": "Domenico SESTINI (1780)",
        "name": "NAGYENYED",
        "person": "Domenico SESTINI",
        "year": "1780",
        "road": 4
      },
      "geometry": {
        "coordinates": [
          23.7188181,
          46.3108893
        ],
        "type": "Point"
      }
    },
    {
      "type": "Feature",
      "properties": {
        "label": "Domenico SESTINI (1780)",
        "name": "FELVINC",
        "person": "Domenico SESTINI",
        "year": "1780",
        "road": 4
      },
      "geometry": {
        "coordinates": [
          23.8114956,
          46.4035376
        ],
        "type": "Point"
      }
    },
    {
      "type": "Feature",
      "properties": {
        "label": "Domenico SESTINI (1780)",
        "name": "TORDA",
        "person": "Domenico SESTINI",
        "year": "1780",
        "road": 4
      },
      "geometry": {
        "coordinates": [
          23.7798424,
          46.5649706
        ],
        "type": "Point"
      }
    },
    {
      "type": "Feature",
      "properties": {
        "label": "Domenico SESTINI (1780)",
        "name": "KOLOZSVÁR",
        "person": "Domenico SESTINI",
        "year": "1780",
        "road": 4
      },
      "geometry": {
        "coordinates": [
          23.5899542,
          46.769379
        ],
        "type": "Point"
      }
    },
    {
      "type": "Feature",
      "properties": {
        "label": "Domenico SESTINI (1780)",
        "name": "FELEK",
        "person": "Domenico SESTINI",
        "year": "1780",
        "road": 4
      },
      "geometry": {
        "coordinates": [
          24.3759547,
          45.7272261
        ],
        "type": "Point"
      }
    },
    {
      "type": "Feature",
      "properties": {
        "label": "Domenico SESTINI (1780)",
        "name": "TORDA",
        "person": "Domenico SESTINI",
        "year": "1780",
        "road": 4
      },
      "geometry": {
        "coordinates": [
          23.7798424,
          46.5649706
        ],
        "type": "Point"
      }
    },
    {
      "type": "Feature",
      "properties": {
        "label": "Domenico SESTINI (1780)",
        "name": "NAGYENYED",
        "person": "Domenico SESTINI",
        "year": "1780",
        "road": 4
      },
      "geometry": {
        "coordinates": [
          23.7188181,
          46.3108893
        ],
        "type": "Point"
      }
    },
    {
      "type": "Feature",
      "properties": {
        "label": "Domenico SESTINI (1780)",
        "name": "GYULAFEHÉRVÁR",
        "person": "Domenico SESTINI",
        "year": "1780",
        "road": 4
      },
      "geometry": {
        "coordinates": [
          23.57207875207549,
          46.0713439
        ],
        "type": "Point"
      }
    },
    {
      "type": "Feature",
      "properties": {
        "label": "Domenico SESTINI (1780)",
        "name": "OMPOLYKÖVESD",
        "person": "Domenico SESTINI",
        "year": "1780",
        "road": 4
      },
      "geometry": {
        "coordinates": [
          23.2637184,
          46.0895612
        ],
        "type": "Point"
      }
    },
    {
      "type": "Feature",
      "properties": {
        "label": "Domenico SESTINI (1780)",
        "name": "ZALATNA",
        "person": "Domenico SESTINI",
        "year": "1780",
        "road": 4
      },
      "geometry": {
        "coordinates": [
          23.2247191,
          46.1113532
        ],
        "type": "Point"
      }
    },
    {
      "type": "Feature",
      "properties": {
        "label": "Domenico SESTINI (1780)",
        "name": "GYULAFEHÉRVÁR",
        "person": "Domenico SESTINI",
        "year": "1780",
        "road": 4
      },
      "geometry": {
        "coordinates": [
          23.57207875207549,
          46.0713439
        ],
        "type": "Point"
      }
    },
    {
      "type": "Feature",
      "properties": {
        "label": "Domenico SESTINI (1780)",
        "name": "ALVINC",
        "person": "Domenico SESTINI",
        "year": "1780",
        "road": 4
      },
      "geometry": {
        "coordinates": [
          23.4855701,
          45.9944325
        ],
        "type": "Point"
      }
    },
    {
      "type": "Feature",
      "properties": {
        "label": "Domenico SESTINI (1780)",
        "name": "ALKENYÉR",
        "person": "Domenico SESTINI",
        "year": "1780",
        "road": 4
      },
      "geometry": {
        "coordinates": [
          23.3361763,
          45.9410607
        ],
        "type": "Point"
      }
    },
    {
      "type": "Feature",
      "properties": {
        "label": "Domenico SESTINI (1780)",
        "name": "SZÁSZVÁROS",
        "person": "Domenico SESTINI",
        "year": "1780",
        "road": 4
      },
      "geometry": {
        "coordinates": [
          23.1958453,
          45.8367637
        ],
        "type": "Point"
      }
    },
    {
      "type": "Feature",
      "properties": {
        "label": "Domenico SESTINI (1780)",
        "name": "DÉVA",
        "person": "Domenico SESTINI",
        "year": "1780",
        "road": 4
      },
      "geometry": {
        "coordinates": [
          22.9008611,
          45.8817402
        ],
        "type": "Point"
      }
    },
    {
      "type": "Feature",
      "properties": {
        "label": "Domenico SESTINI (1780)",
        "name": "NAGYÁG",
        "person": "Domenico SESTINI",
        "year": "1780",
        "road": 4
      },
      "geometry": {
        "coordinates": [
          23.0389301,
          45.9745243
        ],
        "type": "Point"
      }
    },
    {
      "type": "Feature",
      "properties": {
        "label": "Domenico SESTINI (1780)",
        "name": "DÉVA",
        "person": "Domenico SESTINI",
        "year": "1780",
        "road": 4
      },
      "geometry": {
        "coordinates": [
          22.9008611,
          45.8817402
        ],
        "type": "Point"
      }
    },
    {
      "type": "Feature",
      "properties": {
        "label": "Domenico SESTINI (1780)",
        "name": "DOBRA",
        "person": "Domenico SESTINI",
        "year": "1780",
        "road": 4
      },
      "geometry": {
        "coordinates": [
          24.2373489,
          46.5814238
        ],
        "type": "Point"
      }
    },
    {
      "type": "Feature",
      "properties": {
        "label": "Domenico SESTINI (1780)",
        "name": "KOSSÓ",
        "person": "Domenico SESTINI",
        "year": "1780",
        "road": 4
      },
      "geometry": {
        "coordinates": [
          22.3119503,
          45.8483366
        ],
        "type": "Point"
      }
    },
    {
      "type": "Feature",
      "properties": {
        "label": "Domenico SESTINI (1780)",
        "name": "FACSÁD",
        "person": "Domenico SESTINI",
        "year": "1780",
        "road": 4
      },
      "geometry": {
        "coordinates": [
          22.1768874,
          45.8558027
        ],
        "type": "Point"
      }
    },
    {
      "type": "Feature",
      "properties": {
        "label": "Domenico SESTINI (1780)",
        "name": "BOZSOR",
        "person": "Domenico SESTINI",
        "year": "1780",
        "road": 4
      },
      "geometry": {
        "coordinates": [
          22.0678671,
          45.7997308
        ],
        "type": "Point"
      }
    },
    {
      "type": "Feature",
      "properties": {
        "label": "Domenico SESTINI (1780)",
        "name": "LUGOS",
        "person": "Domenico SESTINI",
        "year": "1780",
        "road": 4
      },
      "geometry": {
        "coordinates": [
          -0.8827227,
          44.4816493
        ],
        "type": "Point"
      }
    },
    {
      "type": "Feature",
      "properties": {
        "label": "Domenico SESTINI (1780)",
        "name": "TEMESRÉKAS",
        "person": "Domenico SESTINI",
        "year": "1780",
        "road": 4
      },
      "geometry": {
        "coordinates": [
          21.5092923,
          45.8017074
        ],
        "type": "Point"
      }
    },
    {
      "type": "Feature",
      "properties": {
        "label": "Domenico SESTINI (1780)",
        "name": "TEMESVÁR",
        "person": "Domenico SESTINI",
        "year": "1780",
        "road": 4
      },
      "geometry": {
        "coordinates": [
          21.2257474,
          45.7538355
        ],
        "type": "Point"
      }
    },
    {
      "type": "Feature",
      "properties": {
        "label": "Domenico SESTINI (1780)",
        "name": "KISBECSKEREK",
        "person": "Domenico SESTINI",
        "year": "1780",
        "road": 4
      },
      "geometry": {
        "coordinates": [
          21.0514741,
          45.8346771
        ],
        "type": "Point"
      }
    },
    {
      "type": "Feature",
      "properties": {
        "label": "Domenico SESTINI (1780)",
        "name": "NAGYSZENTMIKLÓS",
        "person": "Domenico SESTINI",
        "year": "1780",
        "road": 4
      },
      "geometry": {
        "coordinates": [
          20.624115,
          46.0711247
        ],
        "type": "Point"
      }
    },
    {
      "type": "Feature",
      "properties": {
        "label": "Domenico SESTINI (1780)",
        "name": "SZŐREG",
        "person": "Domenico SESTINI",
        "year": "1780",
        "road": 4
      },
      "geometry": {
        "coordinates": [
          20.1941063,
          46.2094781
        ],
        "type": "Point"
      }
    },
    {
      "type": "Feature",
      "properties": {
        "label": "Domenico SESTINI (1780)",
        "name": "SZEGED",
        "person": "Domenico SESTINI",
        "year": "1780",
        "road": 4
      },
      "geometry": {
        "coordinates": [
          20.1486016,
          46.2546312
        ],
        "type": "Point"
      }
    },
    {
      "type": "Feature",
      "properties": {
        "label": "BENKŐ FERENC (1783)",
        "name": "ERDŐSZENTGYÖRGY",
        "person": "BENKŐ FERENC",
        "year": "1783",
        "road": 5
      },
      "geometry": {
        "coordinates": [
          24.8421705,
          46.4314439
        ],
        "type": "Point"
      }
    },
    {
      "type": "Feature",
      "properties": {
        "label": "BENKŐ FERENC (1783)",
        "name": "SÓVÁRAD",
        "person": "BENKŐ FERENC",
        "year": "1783",
        "road": 5
      },
      "geometry": {
        "coordinates": [
          25.0102902,
          46.5619751
        ],
        "type": "Point"
      }
    },
    {
      "type": "Feature",
      "properties": {
        "label": "BENKŐ FERENC (1783)",
        "name": "SZÉKELYSZENTISTVÁN",
        "person": "BENKŐ FERENC",
        "year": "1783",
        "road": 5
      },
      "geometry": {
        "coordinates": [
          24.8968649,
          46.4775908
        ],
        "type": "Point"
      }
    },
    {
      "type": "Feature",
      "properties": {
        "label": "BENKŐ FERENC (1783)",
        "name": "MAKFALVA",
        "person": "BENKŐ FERENC",
        "year": "1783",
        "road": 5
      },
      "geometry": {
        "coordinates": [
          24.9253519,
          46.5049282
        ],
        "type": "Point"
      }
    },
    {
      "type": "Feature",
      "properties": {
        "label": "BENKŐ FERENC (1783)",
        "name": "KIBÉD",
        "person": "BENKŐ FERENC",
        "year": "1783",
        "road": 5
      },
      "geometry": {
        "coordinates": [
          24.9624347,
          46.5328758
        ],
        "type": "Point"
      }
    },
    {
      "type": "Feature",
      "properties": {
        "label": "BENKŐ FERENC (1783)",
        "name": "SZOVÁTA",
        "person": "BENKŐ FERENC",
        "year": "1783",
        "road": 5
      },
      "geometry": {
        "coordinates": [
          25.07328,
          46.5971683
        ],
        "type": "Point"
      }
    },
    {
      "type": "Feature",
      "properties": {
        "label": "BENKŐ FERENC (1783)",
        "name": "PARAJD",
        "person": "BENKŐ FERENC",
        "year": "1783",
        "road": 5
      },
      "geometry": {
        "coordinates": [
          25.1245222,
          46.5529119
        ],
        "type": "Point"
      }
    },
    {
      "type": "Feature",
      "properties": {
        "label": "Lazzaro SPALLANZANI (1786)",
        "name": "OLTENIȚA",
        "person": "Lazzaro SPALLANZANI",
        "year": "1786"
      },
      "geometry": {
        "coordinates": [
          26.6407009,
          44.0904556
        ],
        "type": "Point"
      }
    },
    {
      "type": "Feature",
      "properties": {
        "label": "Lazzaro SPALLANZANI (1786)",
        "name": "NEGOEȘTI",
        "person": "Lazzaro SPALLANZANI",
        "year": "1786"
      },
      "geometry": {
        "coordinates": [
          22.8608291,
          44.983112
        ],
        "type": "Point"
      }
    },
    {
      "type": "Feature",
      "properties": {
        "label": "Lazzaro SPALLANZANI (1786)",
        "name": "BUKAREST",
        "person": "Lazzaro SPALLANZANI",
        "year": "1786"
      },
      "geometry": {
        "coordinates": [
          26.1027202,
          44.4361414
        ],
        "type": "Point"
      }
    },
    {
      "type": "Feature",
      "properties": {
        "label": "Lazzaro SPALLANZANI (1786)",
        "name": "VĂLENII",
        "person": "Lazzaro SPALLANZANI",
        "year": "1786"
      },
      "geometry": {
        "coordinates": [
          24.6470857,
          46.4469141
        ],
        "type": "Point"
      }
    },
    {
      "type": "Feature",
      "properties": {
        "label": "Lazzaro SPALLANZANI (1786)",
        "name": "PLOIEŞTI",
        "person": "Lazzaro SPALLANZANI",
        "year": "1786"
      },
      "geometry": {
        "coordinates": [
          26.0236504,
          44.9417468
        ],
        "type": "Point"
      }
    },
    {
      "type": "Feature",
      "properties": {
        "label": "Lazzaro SPALLANZANI (1786)",
        "name": "SLĂNIC",
        "person": "Lazzaro SPALLANZANI",
        "year": "1786"
      },
      "geometry": {
        "coordinates": [
          24.8892827,
          45.2283862
        ],
        "type": "Point"
      }
    },
    {
      "type": "Feature",
      "properties": {
        "label": "Lazzaro SPALLANZANI (1786)",
        "name": "BRASSÓ",
        "person": "Lazzaro SPALLANZANI",
        "year": "1786"
      },
      "geometry": {
        "coordinates": [
          25.6102746,
          45.6523093
        ],
        "type": "Point"
      }
    },
    {
      "type": "Feature",
      "properties": {
        "label": "Lazzaro SPALLANZANI (1786)",
        "name": "NAGYSZEBEN",
        "person": "Lazzaro SPALLANZANI",
        "year": "1786"
      },
      "geometry": {
        "coordinates": [
          24.1519202,
          45.7973912
        ],
        "type": "Point"
      }
    },
    {
      "type": "Feature",
      "properties": {
        "label": "Lazzaro SPALLANZANI (1786)",
        "name": "VIZAKNA",
        "person": "Lazzaro SPALLANZANI",
        "year": "1786"
      },
      "geometry": {
        "coordinates": [
          24.0576688,
          45.8804278
        ],
        "type": "Point"
      }
    },
    {
      "type": "Feature",
      "properties": {
        "label": "Lazzaro SPALLANZANI (1786)",
        "name": "NAGYSZEBEN",
        "person": "Lazzaro SPALLANZANI",
        "year": "1786"
      },
      "geometry": {
        "coordinates": [
          24.1519202,
          45.7973912
        ],
        "type": "Point"
      }
    },
    {
      "type": "Feature",
      "properties": {
        "label": "Lazzaro SPALLANZANI (1786)",
        "name": "ALVINC",
        "person": "Lazzaro SPALLANZANI",
        "year": "1786"
      },
      "geometry": {
        "coordinates": [
          23.4855701,
          45.9944325
        ],
        "type": "Point"
      }
    },
    {
      "type": "Feature",
      "properties": {
        "label": "Lazzaro SPALLANZANI (1786)",
        "name": "ZALATNA",
        "person": "Lazzaro SPALLANZANI",
        "year": "1786"
      },
      "geometry": {
        "coordinates": [
          23.2247191,
          46.1113532
        ],
        "type": "Point"
      }
    },
    {
      "type": "Feature",
      "properties": {
        "label": "Lazzaro SPALLANZANI (1786)",
        "name": "KÖRÖSBÁNYA",
        "person": "Lazzaro SPALLANZANI",
        "year": "1786"
      },
      "geometry": {
        "coordinates": [
          22.7133831,
          46.1737032
        ],
        "type": "Point"
      }
    },
    {
      "type": "Feature",
      "properties": {
        "label": "Lazzaro SPALLANZANI (1786)",
        "name": "ZALATNA",
        "person": "Lazzaro SPALLANZANI",
        "year": "1786"
      },
      "geometry": {
        "coordinates": [
          23.2247191,
          46.1113532
        ],
        "type": "Point"
      }
    },
    {
      "type": "Feature",
      "properties": {
        "label": "Lazzaro SPALLANZANI (1786)",
        "name": "VERESPATAK",
        "person": "Lazzaro SPALLANZANI",
        "year": "1786"
      },
      "geometry": {
        "coordinates": [
          23.1309849,
          46.3062526
        ],
        "type": "Point"
      }
    },
    {
      "type": "Feature",
      "properties": {
        "label": "Lazzaro SPALLANZANI (1786)",
        "name": "ZALATNA",
        "person": "Lazzaro SPALLANZANI",
        "year": "1786"
      },
      "geometry": {
        "coordinates": [
          23.2247191,
          46.1113532
        ],
        "type": "Point"
      }
    },
    {
      "type": "Feature",
      "properties": {
        "label": "Lazzaro SPALLANZANI (1786)",
        "name": "ZALATNA",
        "person": "Lazzaro SPALLANZANI",
        "year": "1786"
      },
      "geometry": {
        "coordinates": [
          23.2247191,
          46.1113532
        ],
        "type": "Point"
      }
    },
    {
      "type": "Feature",
      "properties": {
        "label": "Lazzaro SPALLANZANI (1786)",
        "name": "DÉVA",
        "person": "Lazzaro SPALLANZANI",
        "year": "1786"
      },
      "geometry": {
        "coordinates": [
          22.9008611,
          45.8817402
        ],
        "type": "Point"
      }
    },
    {
      "type": "Feature",
      "properties": {
        "label": "Lazzaro SPALLANZANI (1786)",
        "name": "NAGYÁG",
        "person": "Lazzaro SPALLANZANI",
        "year": "1786"
      },
      "geometry": {
        "coordinates": [
          23.0389301,
          45.9745243
        ],
        "type": "Point"
      }
    },
    {
      "type": "Feature",
      "properties": {
        "label": "Lazzaro SPALLANZANI (1786)",
        "name": "CSERTÉS",
        "person": "Lazzaro SPALLANZANI",
        "year": "1786"
      },